[
    {
        "id": "S24",
        "name": "S24 - Changi Met. Stn",
        "latitude": 1.3677666666666666,
        "longitude": 103.98226666666666,
        "coord": [
            22695.860282579022,
            7631.478401356215
        ]
    },
    {
        "id": "S43",
        "name": "S43 - Upper Air Observatory",
        "latitude": 1.3406166666666666,
        "longitude": 103.88816666666666,
        "coord": [
            12223.756195284555,
            4628.679956761554
        ]
    },
    {
        "id": "S44",
        "name": "S44 - Nanyang Technological University",
        "latitude": 1.3452333333333333,
        "longitude": 103.68333333333334,
        "coord": [
            -10571.97904135583,
            5139.09897372665
        ]
    },
    {
        "id": "S50",
        "name": "S50 - Ngee Ann Polytechnic",
        "latitude": 1.3317833333333333,
        "longitude": 103.77611666666667,
        "coord": [
            -246.20973895338395,
            3651.6611740324283
        ]
    },
    {
        "id": "S60",
        "name": "S60 - Sentosa",
        "latitude": 1.2504,
        "longitude": 103.82753333333334,
        "coord": [
            5476.106429403637,
            -5347.236663727745
        ]
    },
    {
        "id": "S86",
        "name": "S86 - JTC, Chia Ping Rd",
        "latitude": 1.3268666666666666,
        "longitude": 103.72046666666667,
        "coord": [
            -6439.491003001047,
            3108.076563396131
        ]
    },
    {
        "id": "S102",
        "name": "S102 - Semakau Landfill",
        "latitude": 1.1901666666666666,
        "longitude": 103.76571666666666,
        "coord": [
            -1403.6976683566825,
            -12007.572318266582
        ]
    },
    {
        "id": "S104",
        "name": "S104 - Republic Polytechnic ",
        "latitude": 1.4438666666666666,
        "longitude": 103.78538333333333,
        "coord": [
            785.0371299693403,
            16045.268738495692
        ]
    },
    {
        "id": "S106",
        "name": "S106 - Pulau Ubin",
        "latitude": 1.4168,
        "longitude": 103.9673,
        "coord": [
            21029.805752059798,
            13053.22920258903
        ]
    },
    {
        "id": "S107",
        "name": "S107 - National Sailing Centre",
        "latitude": 1.3133166666666667,
        "longitude": 103.96198333333334,
        "coord": [
            20439.007477116014,
            1610.4626363748928
        ]
    },
    {
        "id": "S108",
        "name": "S108 - Marina Barrage",
        "latitude": 1.2799166666666668,
        "longitude": 103.8703,
        "coord": [
            10235.631983168358,
            -2083.304455979623
        ]
    },
    {
        "id": "S109",
        "name": "S109 - Nanyang Polytechnic",
        "latitude": 1.3792666666666666,
        "longitude": 103.85001666666666,
        "coord": [
            7977.939964890114,
            8902.24590209348
        ]
    },
    {
        "id": "S111",
        "name": "S111 - Environment Building",
        "latitude": 1.31055,
        "longitude": 103.8365,
        "coord": [
            6473.884641153761,
            1303.8632376531018
        ]
    },
    {
        "id": "S115",
        "name": "S115 - Tuas Marine Transfer Stn",
        "latitude": 1.2884,
        "longitude": 103.6379,
        "coord": [
            -15628.574784271566,
            -1145.0141439066863
        ]
    },
    {
        "id": "S116",
        "name": "S116 - Pasir Panjang Terminal",
        "latitude": 1.28235,
        "longitude": 103.7545,
        "coord": [
            -2651.9723189805604,
            -1814.4101926899255
        ]
    },
    {
        "id": "S117",
        "name": "S117 - Banyan Fire Stn",
        "latitude": 1.256,
        "longitude": 103.679,
        "coord": [
            -11054.62040122463,
            -4727.859017448431
        ]
    },
    {
        "id": "S121",
        "name": "S121 - Home Team Academy",
        "latitude": 1.3728833333333332,
        "longitude": 103.7224,
        "coord": [
            -6224.2135277454645,
            8196.362004189488
        ]
    },
    {
        "id": "S122",
        "name": "S122 - AVA, Bah Soon Pah Rd",
        "latitude": 1.41725,
        "longitude": 103.82513333333333,
        "coord": [
            5208.651931524497,
            13102.183077371048
        ]
    }
]